[
  { "id": 1, "name": "פז - תל אביב רוקח", "brand": "paz", "lat": 32.0853, "lng": 34.7818, "address": "שדרות רוקח 47, תל אביב" },
  { "id": 2, "name": "סונול - תל אביב אבן גבירול", "brand": "sonol", "lat": 32.0800, "lng": 34.7810, "address": "אבן גבירול 100, תל אביב" },
  { "id": 3, "name": "דלק - תל אביב יגאל אלון", "brand": "delek", "lat": 32.0630, "lng": 34.7920, "address": "יגאל אלון 50, תל אביב" },
  { "id": 4, "name": "פז - ירושלים בגין", "brand": "paz", "lat": 31.7767, "lng": 35.2345, "address": "מנחם בגין 1, ירושלים" },
  { "id": 5, "name": "סונול - ירושלים גבעת שאול", "brand": "sonol", "lat": 31.7900, "lng": 35.1950, "address": "גבעת שאול, ירושלים" },
  { "id": 6, "name": "דלק - חיפה הנמל", "brand": "delek", "lat": 32.8191, "lng": 34.9989, "address": "שד' בן גוריון 1, חיפה" },
  { "id": 7, "name": "פז - חיפה חוצות המפרץ", "brand": "paz", "lat": 32.7940, "lng": 35.0120, "address": "חוצות המפרץ, קריות" },
  { "id": 8, "name": "סונול - באר שבע רגר", "brand": "sonol", "lat": 31.2530, "lng": 34.7915, "address": "שד' רגר, באר שבע" },
  { "id": 9, "name": "דלק - באר שבע קיבוץ גלויות", "brand": "delek", "lat": 31.2430, "lng": 34.8010, "address": "קיבוץ גלויות, באר שבע" },
  { "id": 10, "name": "פז - ראשון לציון משה דיין", "brand": "paz", "lat": 31.9730, "lng": 34.7890, "address": "משה דיין, ראשון לציון" },
  { "id": 11, "name": "סונול - פתח תקווה קפלן", "brand": "sonol", "lat": 32.0840, "lng": 34.8870, "address": "קפלן, פתח תקווה" },
  { "id": 12, "name": "דלק - נתניה הרצל", "brand": "delek", "lat": 32.3215, "lng": 34.8532, "address": "הרצל 1, נתניה" },
  { "id": 13, "name": "פז - אשדוד שדרות הנשיא", "brand": "paz", "lat": 31.8040, "lng": 34.6550, "address": "שד' הנשיא, אשדוד" },
  { "id": 14, "name": "סונול - רמת גן ז'בוטינסקי", "brand": "sonol", "lat": 32.0680, "lng": 34.8140, "address": "ז'בוטינסקי, רמת גן" },
  { "id": 15, "name": "דלק - הרצליה סוקולוב", "brand": "delek", "lat": 32.1650, "lng": 34.8430, "address": "סוקולוב, הרצליה" },
  { "id": 16, "name": "Ten - תל אביב לה גווארדיה", "brand": "ten", "lat": 32.0710, "lng": 34.7750, "address": "לה גווארדיה, תל אביב" },
  { "id": 17, "name": "פז - חולון סוקולוב", "brand": "paz", "lat": 32.0150, "lng": 34.7730, "address": "סוקולוב, חולון" },
  { "id": 18, "name": "סונול - בת ים בלפור", "brand": "sonol", "lat": 32.0230, "lng": 34.7500, "address": "בלפור, בת ים" },
  { "id": 19, "name": "דלק - רחובות הרצל", "brand": "delek", "lat": 31.8940, "lng": 34.8110, "address": "הרצל, רחובות" },
  { "id": 20, "name": "פז - מודיעין עזריאלי", "brand": "paz", "lat": 31.8980, "lng": 35.0100, "address": "עזריאלי, מודיעין" }
]
